[
  {
    "name": "4789 CINE CENTRAL",
    "latitude": -12.044855,
    "longitude": -77.035881,
    "contentUrl": "http://arquitecturacontemporanealima.blogspot.com/2012/01/1_11.html"
  },
  {
    "name": "4790 AEROESTACION DE LA CORPAC – LIMATAMBO",
    "latitude": -12.0982,
    "longitude": -77.015555,
    "contentUrl": "http://arquitecturacontemporanealima.blogspot.com/2012/01/2_11.html"
  },
  {
    "name": "4791 MERCADO DE SURQUILLO",
    "latitude": -12.118011,
    "longitude": -77.02571,
    "contentUrl": "http://arquitecturacontemporanealima.blogspot.com/2012/01/3_11.html"
  },
  {
    "name": "4792 UNIDAD ESCOLAR MELITON CARBAJAL",
    "latitude": -12.084436,
    "longitude": -77.027121,
    "contentUrl": "http://arquitecturacontemporanealima.blogspot.com/2012/01/4.html"
  },
  {
    "name": "4793 HOTEL SAVOY",
    "latitude": -12.044913,
    "longitude": -77.033719,
    "contentUrl": "http://arquitecturacontemporanealima.blogspot.com/2012/01/5.html"
  },
  {
    "name": "4794 INSTITUTO EDMUNDO D’AMICIS",
    "latitude": -12.047568,
    "longitude": -76.996694,
    "contentUrl": "http://arquitecturacontemporanealima.blogspot.com/2012/01/6.html"
  },
  {
    "name": "4795 TOURING Y AUTOMOVIL CLUB",
    "latitude": -12.089524,
    "longitude": -77.039046,
    "contentUrl": "http://arquitecturacontemporanealima.blogspot.com/2012/01/7.html"
  },
  {
    "name": "4796 ATLAS COPCO PERUANA",
    "latitude": -12.083219,
    "longitude": -77.013549,
    "contentUrl": "http://arquitecturacontemporanealima.blogspot.com/2012/01/8.html"
  },
  {
    "name": "4797 CASA EN SAN FELIPE",
    "latitude": -12.082684,
    "longitude": -77.046261,
    "contentUrl": "http://arquitecturacontemporanealima.blogspot.com/2012/01/9.html"
  },
  {
    "name": "4798 CASA AICARDI",
    "latitude": -12.12346,
    "longitude": -77.022089,
    "contentUrl": "http://arquitecturacontemporanealima.blogspot.com/2012/01/10.html"
  },
  {
    "name": "4799 CASA ARLLENTAR",
    "latitude": -12.083555,
    "longitude": -77.049501,
    "contentUrl": "http://arquitecturacontemporanealima.blogspot.com/2012/01/11.html"
  },
  {
    "name": "4800 CASA DE LA PUENTE",
    "latitude": -12.098604,
    "longitude": -77.050365,
    "contentUrl": "http://arquitecturacontemporanealima.blogspot.com/2012/01/12.html"
  },
  {
    "name": "4801 CASA RODRIGO-PRADO",
    "latitude": -12.076631,
    "longitude": -76.940024,
    "contentUrl": "http://arquitecturacontemporanealima.blogspot.com/2012/01/13.html"
  },
  {
    "name": "4802 CASA EN RINCONADA BAJA",
    "latitude": -12.078225,
    "longitude": -76.937213,
    "contentUrl": "http://arquitecturacontemporanealima.blogspot.com/2012/01/14.html"
  },
  {
    "name": "4803 EDIFICIO SANTA AMELIA",
    "latitude": -12.103319,
    "longitude": -77.049737,
    "contentUrl": "http://arquitecturacontemporanealima.blogspot.com/2012/01/15.html"
  },
  {
    "name": "4804 EMBAJADA ARGENTINA",
    "latitude": -12.064969,
    "longitude": -77.037211,
    "contentUrl": "http://arquitecturacontemporanealima.blogspot.com/2012/01/16.html"
  },
  {
    "name": "4805 VIVIENDAS EN AV. AVIACION",
    "latitude": -12.119789,
    "longitude": -77.042162,
    "contentUrl": "http://arquitecturacontemporanealima.blogspot.com/2012/01/17.html"
  },
  {
    "name": "4806 SEIS CASAS O. BERCKMEYER",
    "latitude": -12.093018,
    "longitude": -77.040231,
    "contentUrl": "http://arquitecturacontemporanealima.blogspot.com/2012/01/18.html"
  },
  {
    "name": "4807 CASA EN ORRANTIA I",
    "latitude": -12.0967,
    "longitude": -77.043321,
    "contentUrl": "http://arquitecturacontemporanealima.blogspot.com/2012/01/19.html"
  },
  {
    "name": "4808 EMBAJADA ESTADOS UNIDOS",
    "latitude": -12.07022,
    "longitude": -77.03609,
    "contentUrl": "http://arquitecturacontemporanealima.blogspot.com/2012/01/20.html"
  },
  {
    "name": "4809 CASA EN ORRANTIA",
    "latitude": -12.093206,
    "longitude": -77.052505,
    "contentUrl": "http://arquitecturacontemporanealima.blogspot.com/2012/01/21.html"
  },
  {
    "name": "4810 CASA D’ONOFRIO",
    "latitude": -12.098231,
    "longitude": -77.0411,
    "contentUrl": "http://arquitecturacontemporanealima.blogspot.com/2012/01/22.html"
  },
  {
    "name": "4811 CASA TREGO",
    "latitude": -12.104274,
    "longitude": -77.044233,
    "contentUrl": "http://arquitecturacontemporanealima.blogspot.com/2012/01/23.html"
  },
  {
    "name": "4812 CASA ELEJALDE",
    "latitude": -12.134238,
    "longitude": -77.025715,
    "contentUrl": "http://arquitecturacontemporanealima.blogspot.com/2012/01/24.html"
  },
  {
    "name": "4813 CASA ARANA VELARDE",
    "latitude": -12.09734,
    "longitude": -77.050488,
    "contentUrl": "http://arquitecturacontemporanealima.blogspot.com/2012/01/25.html"
  },
  {
    "name": "4814 CASA FERRAND",
    "latitude": -12.126151,
    "longitude": -77.02012,
    "contentUrl": "http://arquitecturacontemporanealima.blogspot.com/2012/01/26.html"
  },
  {
    "name": "4815 VIVIENDAS EN CALLE BERLIN",
    "latitude": -12.120035,
    "longitude": -77.039161,
    "contentUrl": "http://arquitecturacontemporanealima.blogspot.com/2012/01/27.html"
  },
  {
    "name": "4816 CASA FLOGIANI",
    "latitude": -12.091287,
    "longitude": -77.047232,
    "contentUrl": "http://arquitecturacontemporanealima.blogspot.com/2012/01/28.html"
  },
  {
    "name": "4817 CASA GARCIA BAUDIN",
    "latitude": -12.122012,
    "longitude": -77.025898,
    "contentUrl": "http://arquitecturacontemporanealima.blogspot.com/2012/01/29.html"
  },
  {
    "name": "4818 CASAS DE VERANO",
    "latitude": -11.773837,
    "longitude": -77.18226,
    "contentUrl": "http://arquitecturacontemporanealima.blogspot.com/2012/01/30.html"
  },
  {
    "name": "4819 CASAS CRUCHAGA",
    "latitude": -12.084709,
    "longitude": -77.053471,
    "contentUrl": "http://arquitecturacontemporanealima.blogspot.com/2012/01/31.html"
  },
  {
    "name": "4820 BIFAMILIAR MONTAGNE – VELLA",
    "latitude": -12.098798,
    "longitude": -77.057623,
    "contentUrl": "http://arquitecturacontemporanealima.blogspot.com/2012/01/32.html"
  },
  {
    "name": "4821 CASA SOYER NASH",
    "latitude": -12.098903,
    "longitude": -77.058084,
    "contentUrl": "http://arquitecturacontemporanealima.blogspot.com/2012/01/33.html"
  },
  {
    "name": "4822 CASA REVILLA",
    "latitude": -12.13783,
    "longitude": -76.997252,
    "contentUrl": "http://arquitecturacontemporanealima.blogspot.com/2012/01/34.html"
  },
  {
    "name": "4823 CONDOMINIO DE SURCO",
    "latitude": -12.119264,
    "longitude": -76.980064,
    "contentUrl": "http://arquitecturacontemporanealima.blogspot.com/2012/01/35.html"
  },
  {
    "name": "4824 CASA LIRA",
    "latitude": -12.120303,
    "longitude": -77.009584,
    "contentUrl": "http://arquitecturacontemporanealima.blogspot.com/2012/01/36.html"
  },
  {
    "name": "4825 CASA GHARIANI",
    "latitude": -11.977364,
    "longitude": -76.746358,
    "contentUrl": "http://arquitecturacontemporanealima.blogspot.com/2012/01/37.html"
  },
  {
    "name": "4826 CASA GEZZI",
    "latitude": null,
    "longitude": null,
    "contentUrl": "http://arquitecturacontemporanealima.blogspot.com/2012/01/38.html"
  },
  {
    "name": "4828 IGLESIA DE ANCON",
    "latitude": -11.774262,
    "longitude": -77.174835,
    "contentUrl": "http://arquitecturacontemporanealima.blogspot.com/2012/01/40.html"
  },
  {
    "name": "4829 CAPILLA DE SANTO TORIBIO",
    "latitude": -12.083324,
    "longitude": -77.067697,
    "contentUrl": "http://arquitecturacontemporanealima.blogspot.com/2012/01/41.html"
  },
  {
    "name": "4830 COLEGIO DE SANTA MARIA",
    "latitude": -12.114544,
    "longitude": -76.988797,
    "contentUrl": "http://arquitecturacontemporanealima.blogspot.com/2012/01/42.html"
  },
  {
    "name": "4831 COLEGIO ALEXANDER VON HUMBOLDT",
    "latitude": -12.12839,
    "longitude": -77.002133,
    "contentUrl": "http://arquitecturacontemporanealima.blogspot.com/2012/01/43.html"
  },
  {
    "name": "4832 ESTADIO NACIONAL",
    "latitude": -12.067146,
    "longitude": -77.03388,
    "contentUrl": "http://arquitecturacontemporanealima.blogspot.com/2012/01/44.html"
  },
  {
    "name": "4833 ACENESPAR",
    "latitude": null,
    "longitude": null,
    "contentUrl": "http://arquitecturacontemporanealima.blogspot.com/2012/01/45.html"
  },
  {
    "name": "4834 EDIFICIO REISER Y CURIONI",
    "latitude": -12.046854,
    "longitude": -77.028408,
    "contentUrl": "http://arquitecturacontemporanealima.blogspot.com/2012/01/46.html"
  },
  {
    "name": "4835 EDIFICIO DE LA FENIX PERUANA",
    "latitude": -12.050755,
    "longitude": -77.03823,
    "contentUrl": "http://arquitecturacontemporanealima.blogspot.com/2012/01/47.html"
  },
  {
    "name": "4845 CENTRO COMERCIAL ARENALES",
    "latitude": -12.081981,
    "longitude": -77.035757,
    "contentUrl": "http://arquitecturacontemporanealima.blogspot.com/2012/01/57.html"
  },
  {
    "name": "4847 TEXTIL SAN PEDRO S.A.",
    "latitude": -11.865094,
    "longitude": -77.073576,
    "contentUrl": "http://arquitecturacontemporanealima.blogspot.com/2012/01/59.html"
  },
  {
    "name": "4849 SKF LIMA",
    "latitude": -12.0841,
    "longitude": -77.013967,
    "contentUrl": "http://arquitecturacontemporanealima.blogspot.com/2012/01/61.html"
  },
  {
    "name": "4851 CASA VARON I",
    "latitude": -12.076599,
    "longitude": -77.035865,
    "contentUrl": "http://arquitecturacontemporanealima.blogspot.com/2012/01/62.html"
  },
  {
    "name": "4852 CASA GARCIA BRYCE",
    "latitude": -12.104329,
    "longitude": -77.041521,
    "contentUrl": "http://arquitecturacontemporanealima.blogspot.com/2012/01/63.html"
  },
  {
    "name": "4853 EDIFICIO RAFFO",
    "latitude": -12.050083,
    "longitude": -77.037315,
    "contentUrl": "http://arquitecturacontemporanealima.blogspot.com/2012/01/64.html"
  },
  {
    "name": "4854 MINISTERIO DE SALUD",
    "latitude": -12.072888,
    "longitude": -77.041046,
    "contentUrl": "http://arquitecturacontemporanealima.blogspot.com/2012/01/65.html"
  },
  {
    "name": "4855 RAMO DE LOTERIAS DE LIMA Y CALLAO",
    "latitude": -12.051091,
    "longitude": -77.032326,
    "contentUrl": "http://arquitecturacontemporanealima.blogspot.com/2012/01/66.html"
  },
  {
    "name": "4856 EDIFICIO BELEN",
    "latitude": -12.053879,
    "longitude": -77.036514,
    "contentUrl": "http://arquitecturacontemporanealima.blogspot.com/2012/01/67.html"
  },
  {
    "name": "4857 EDIFICIO NACIONAL",
    "latitude": -12.048531,
    "longitude": -77.034233,
    "contentUrl": "http://arquitecturacontemporanealima.blogspot.com/2012/01/68.html"
  },
  {
    "name": "4858 CASA DAMMERT – LIRA",
    "latitude": -12.090969,
    "longitude": -77.034859,
    "contentUrl": "http://arquitecturacontemporanealima.blogspot.com/2012/01/69.html"
  },
  {
    "name": "4859 EDIFICIO TACNA - NAZARENAS",
    "latitude": -12.04549,
    "longitude": -77.036583,
    "contentUrl": "http://arquitecturacontemporanealima.blogspot.com/2012/01/70.html"
  },
  {
    "name": "4860 EDIFICIO SEGUROS EL SOL",
    "latitude": -12.050946,
    "longitude": -77.035851,
    "contentUrl": "http://arquitecturacontemporanealima.blogspot.com/2012/01/71.html"
  },
  {
    "name": "4861 CAPILLA Y CONJUNTO SAN JOSE",
    "latitude": -12.073205,
    "longitude": -77.01091,
    "contentUrl": "http://arquitecturacontemporanealima.blogspot.com/2012/01/72.html"
  },
  {
    "name": "4862 EDIFICIO ALDABAS – MELCHORMALO",
    "latitude": -12.04773,
    "longitude": -77.028366,
    "contentUrl": "http://arquitecturacontemporanealima.blogspot.com/2012/01/73.html"
  },
  {
    "name": "4863 CASA DE OBREROS N°1 – BENEFICIENCIA",
    "latitude": -12.053779,
    "longitude": -77.020668,
    "contentUrl": "http://arquitecturacontemporanealima.blogspot.com/2012/01/74.html"
  },
  {
    "name": "4864 CASA MONTALBETTII",
    "latitude": -12.105701,
    "longitude": -77.030884,
    "contentUrl": "http://arquitecturacontemporanealima.blogspot.com/2012/01/75.html"
  },
  {
    "name": "4865 SOCIEDAD DE INGENIEROS",
    "latitude": -12.050763,
    "longitude": -77.03627,
    "contentUrl": "http://arquitecturacontemporanealima.blogspot.com/2012/01/76.html"
  },
  {
    "name": "4866 PRIMER BARRIO OBRERO – LA VICTORIA",
    "latitude": -12.062907,
    "longitude": -77.02462,
    "contentUrl": "http://arquitecturacontemporanealima.blogspot.com/2012/01/77.html"
  },
  {
    "name": "4867 CASA IZAGA",
    "latitude": -12.100888,
    "longitude": -77.032272,
    "contentUrl": "http://arquitecturacontemporanealima.blogspot.com/2012/01/78.html"
  },
  {
    "name": "4868 CASA TRUEL",
    "latitude": -12.105659,
    "longitude": -77.03344,
    "contentUrl": "http://arquitecturacontemporanealima.blogspot.com/2012/01/79.html"
  },
  {
    "name": "4871 EDIFICIO ALIDE",
    "latitude": -12.095116,
    "longitude": -77.023766,
    "contentUrl": "http://arquitecturacontemporanealima.blogspot.com/2012/01/80.html"
  },
  {
    "name": "4872 CASA LUZA",
    "latitude": -12.065242,
    "longitude": -77.035591,
    "contentUrl": "http://arquitecturacontemporanealima.blogspot.com/2012/01/81.html"
  },
  {
    "name": "4873 DEPARTAMENTOS CALLE MANCO CAPAC",
    "latitude": -12.141879,
    "longitude": -77.020531,
    "contentUrl": "http://arquitecturacontemporanealima.blogspot.com/2012/01/82.html"
  },
  {
    "name": "4874 SEGUNDO BARRIO OBRERO – RIMAC",
    "latitude": -12.038738,
    "longitude": -77.03643,
    "contentUrl": "http://arquitecturacontemporanealima.blogspot.com/2012/01/83.html"
  },
  {
    "name": "4875 CASA PUM",
    "latitude": -12.106849,
    "longitude": -77.031273,
    "contentUrl": "http://arquitecturacontemporanealima.blogspot.com/2012/01/84.html"
  },
  {
    "name": "4876 MUNICIPALIDAD DE MIRAFLORES",
    "latitude": -12.121687,
    "longitude": -77.029251,
    "contentUrl": "http://arquitecturacontemporanealima.blogspot.com/2012/01/85.html"
  },
  {
    "name": "4877 MUNICIPALIDAD DE LIMA",
    "latitude": -12.045283,
    "longitude": -77.031143,
    "contentUrl": "http://arquitecturacontemporanealima.blogspot.com/2012/01/86.html"
  },
  {
    "name": "4878 EDIFICIO FERRAND HNOS.",
    "latitude": -12.050799,
    "longitude": -77.039001,
    "contentUrl": "http://arquitecturacontemporanealima.blogspot.com/2012/01/87.html"
  },
  {
    "name": "4879 BANCO MINERO",
    "latitude": -12.059477,
    "longitude": -77.038094,
    "contentUrl": "http://arquitecturacontemporanealima.blogspot.com/2012/01/88.html"
  },
  {
    "name": "4880 ESCUELA NAVAL “LA PUNTA”",
    "latitude": -12.072245,
    "longitude": -77.167778,
    "contentUrl": "http://arquitecturacontemporanealima.blogspot.com/2012/01/89.html"
  },
  {
    "name": "4881 EDIFICIO WILSON",
    "latitude": -12.05034,
    "longitude": -77.038513,
    "contentUrl": "http://arquitecturacontemporanealima.blogspot.com/2012/01/90.html"
  },
  {
    "name": "4882 CASA DE LA TORRE RIBAUDO",
    "latitude": -12.091475,
    "longitude": -77.033737,
    "contentUrl": "http://arquitecturacontemporanealima.blogspot.com/2012/01/91.html"
  },
  {
    "name": "4883 CASA DONOFRIO 1",
    "latitude": -12.074092,
    "longitude": -77.052643,
    "contentUrl": "http://arquitecturacontemporanealima.blogspot.com/2012/01/92.html"
  },
  {
    "name": "4884 TERCER BARRIO OBRERO",
    "latitude": -12.030937,
    "longitude": -77.045509,
    "contentUrl": "http://arquitecturacontemporanealima.blogspot.com/2012/01/93.html"
  },
  {
    "name": "4885 IGLESIA EVANGELICA LUTERANA",
    "latitude": -12.092247,
    "longitude": -77.026581,
    "contentUrl": "http://arquitecturacontemporanealima.blogspot.com/2012/01/94.html"
  },
  {
    "name": "4886 CASA ZUZUNAGA",
    "latitude": -12.133021,
    "longitude": -77.027176,
    "contentUrl": "http://arquitecturacontemporanealima.blogspot.com/2012/01/95.html"
  },
  {
    "name": "4887 PALACIO DE JUSTICIA",
    "latitude": -12.057575,
    "longitude": -77.03495,
    "contentUrl": "http://arquitecturacontemporanealima.blogspot.com/2012/01/96.html"
  },
  {
    "name": "4888 EDIFICIO REAL",
    "latitude": -12.105328,
    "longitude": -77.039406,
    "contentUrl": "http://arquitecturacontemporanealima.blogspot.com/2012/01/97.html"
  },
  {
    "name": "4889 HOSPITAL OBRERO",
    "latitude": -12.05981,
    "longitude": -77.022301,
    "contentUrl": "http://arquitecturacontemporanealima.blogspot.com/2012/01/98.html"
  },
  {
    "name": "4890 CUARTO BARRIO OBRERO",
    "latitude": -12.032059,
    "longitude": -77.044586,
    "contentUrl": "http://arquitecturacontemporanealima.blogspot.com/2012/01/99.html"
  },
  {
    "name": "4891 NUNCIATURA APOSTOLICA",
    "latitude": -12.07118,
    "longitude": -77.041611,
    "contentUrl": "http://arquitecturacontemporanealima.blogspot.com/2012/01/100.html"
  },
  {
    "name": "4892 CLUB NACIONAL",
    "latitude": -12.051744,
    "longitude": -77.035714,
    "contentUrl": "http://arquitecturacontemporanealima.blogspot.com/2012/01/101.html"
  },
  {
    "name": "4893 CASA DE OBREROS N° 4",
    "latitude": -12.052122,
    "longitude": -77.016188,
    "contentUrl": "http://arquitecturacontemporanealima.blogspot.com/2012/01/102.html"
  },
  {
    "name": "4895 EDIFICIO TACNA",
    "latitude": -12.04708,
    "longitude": -77.038147,
    "contentUrl": "http://arquitecturacontemporanealima.blogspot.com/2012/01/103.html"
  },
  {
    "name": "4896 EDIFICIO IRMA",
    "latitude": -12.050131,
    "longitude": -77.041138,
    "contentUrl": "http://arquitecturacontemporanealima.blogspot.com/2012/01/104.html"
  },
  {
    "name": "4897 CASA ULLOA",
    "latitude": -12.068088,
    "longitude": -77.15966,
    "contentUrl": "http://arquitecturacontemporanealima.blogspot.com/2012/01/105.html"
  },
  {
    "name": "4898 INSTITUTO NACIONAL DEL CANCER",
    "latitude": -12.049782,
    "longitude": -77.041977,
    "contentUrl": "http://arquitecturacontemporanealima.blogspot.com/2012/01/106.html"
  },
  {
    "name": "4899 UNIDAD VECINAL N° 3",
    "latitude": -12.051807,
    "longitude": -77.082848,
    "contentUrl": "http://arquitecturacontemporanealima.blogspot.com/2012/01/107.html"
  },
  {
    "name": "4900 GRUPO \"ALBERTO ALEXANDER”",
    "latitude": -12.04724,
    "longitude": -77.046059,
    "contentUrl": "http://arquitecturacontemporanealima.blogspot.com/2012/01/108.html"
  },
  {
    "name": "4901 BANCO CENTRAL HIPOTECARIO – MIRAFLORES",
    "latitude": -12.124714,
    "longitude": -77.029121,
    "contentUrl": "http://arquitecturacontemporanealima.blogspot.com/2012/01/109.html"
  },
  {
    "name": "4902 AGRUPACION EMPLEADOS PROY. MIRAFLORES",
    "latitude": -12.119791,
    "longitude": -77.019897,
    "contentUrl": "http://arquitecturacontemporanealima.blogspot.com/2012/01/110.html"
  },
  {
    "name": "4904 UNIDAD SANTA MARINA",
    "latitude": -12.057307,
    "longitude": -77.134209,
    "contentUrl": "http://arquitecturacontemporanealima.blogspot.com/2012/01/111.html"
  },
  {
    "name": "4905 CLINICA ESTELLA MARIS",
    "latitude": -12.07106,
    "longitude": -77.059517,
    "contentUrl": "http://arquitecturacontemporanealima.blogspot.com/2012/01/112.html"
  },
  {
    "name": "4906 EDIFICIO ATLAS",
    "latitude": -12.046907,
    "longitude": -77.03463,
    "contentUrl": "http://arquitecturacontemporanealima.blogspot.com/2012/01/113.html"
  },
  {
    "name": "4907 CENTRO CLIMATICO DE ESPARCIMIENTO – HUAMPANI",
    "latitude": -11.973538,
    "longitude": -76.771965,
    "contentUrl": "http://arquitecturacontemporanealima.blogspot.com/2012/01/114.html"
  },
  {
    "name": "4909 COMPAÑIA DE SEGUROS PERUANO SUIZA",
    "latitude": -12.04613,
    "longitude": -77.033119,
    "contentUrl": "http://arquitecturacontemporanealima.blogspot.com/2012/01/115.html"
  },
  {
    "name": "4910 RESIDENCIAL PERUANO SUIZA",
    "latitude": -12.121084,
    "longitude": -77.011513,
    "contentUrl": "http://arquitecturacontemporanealima.blogspot.com/2012/01/116.html"
  },
  {
    "name": "4911 EDIFICIO SUDAMERICANA",
    "latitude": -12.052515,
    "longitude": -77.034218,
    "contentUrl": "http://arquitecturacontemporanealima.blogspot.com/2012/01/117.html"
  },
  {
    "name": "4912 CASA PIEDRA",
    "latitude": -12.063516,
    "longitude": -77.041672,
    "contentUrl": "http://arquitecturacontemporanealima.blogspot.com/2012/01/118.html"
  },
  {
    "name": "4913 PLANTA DE ENSAMBLAJE DE VOLKSWAGEN",
    "latitude": -12.013948,
    "longitude": -77.060905,
    "contentUrl": "http://arquitecturacontemporanealima.blogspot.com/2012/01/119.html"
  },
  {
    "name": "4914 EDIFICIO DE OFICINAS NIZZOLA",
    "latitude": -12.096141,
    "longitude": -77.024284,
    "contentUrl": "http://arquitecturacontemporanealima.blogspot.com/2012/01/120.html"
  },
  {
    "name": "4915 AEROPUERTO INTERNACIONAL JORGE CHAVEZ",
    "latitude": -12.018418,
    "longitude": -77.114754,
    "contentUrl": "http://arquitecturacontemporanealima.blogspot.com/2012/01/121.html"
  },
  {
    "name": "4916 RESIDENCIAL SAN FELIPE 1° ETAPA",
    "latitude": -12.089826,
    "longitude": -77.056274,
    "contentUrl": "http://arquitecturacontemporanealima.blogspot.com/2012/01/122.html"
  },
  {
    "name": "4917 CENTRO CIVICO DE LIMA",
    "latitude": -12.056276,
    "longitude": -77.037857,
    "contentUrl": "http://arquitecturacontemporanealima.blogspot.com/2012/01/123.html"
  },
  {
    "name": "4919 EDIFICIO DE OFICINAS IBM",
    "latitude": -12.070981,
    "longitude": -76.952049,
    "contentUrl": "http://arquitecturacontemporanealima.blogspot.com/2012/01/124.html"
  },
  {
    "name": "4920 CIA DE SEGUROS “LA NACIONAL”",
    "latitude": -12.07316,
    "longitude": -76.955383,
    "contentUrl": "http://arquitecturacontemporanealima.blogspot.com/2012/01/125.html"
  },
  {
    "name": "4921 CASA DE OBREROS N°13",
    "latitude": -12.041521,
    "longitude": -77.040573,
    "contentUrl": "http://arquitecturacontemporanealima.blogspot.com/2012/01/126.html"
  },
  {
    "name": "4922 BANCO CENTRAL DE RESERVA",
    "latitude": -12.049934,
    "longitude": -77.029137,
    "contentUrl": "http://arquitecturacontemporanealima.blogspot.com/2012/01/127.html"
  },
  {
    "name": "4926 CASA ALVAREZ CALDERON",
    "latitude": -12.096005,
    "longitude": -77.034828,
    "contentUrl": "http://arquitecturacontemporanealima.blogspot.com/2012/01/128.html"
  },
  {
    "name": "4927 EDIFICIO OSTOLAZA",
    "latitude": -12.045858,
    "longitude": -77.036701,
    "contentUrl": "http://arquitecturacontemporanealima.blogspot.com/2012/01/129.html"
  },
  {
    "name": "4929 CONJUNTO HABITACIONAL CHABUCA GRANDA",
    "latitude": -12.036047,
    "longitude": -77.026512,
    "contentUrl": "http://arquitecturacontemporanealima.blogspot.com/2012/01/130.html"
  },
  {
    "name": "4931 CASA HASTING",
    "latitude": -12.148403,
    "longitude": -77.023346,
    "contentUrl": "http://arquitecturacontemporanealima.blogspot.com/2012/01/131.html"
  },
  {
    "name": "4933 CASA VELARDE EN BARRANCO",
    "latitude": -12.146043,
    "longitude": -77.024119,
    "contentUrl": "http://arquitecturacontemporanealima.blogspot.com/2012/01/132.html"
  },
  {
    "name": "4934 EDIFICIO EL PACIFICO",
    "latitude": -12.119317,
    "longitude": -77.029602,
    "contentUrl": "http://arquitecturacontemporanealima.blogspot.com/2012/01/133.html"
  },
  {
    "name": "4935 LAS TERRAZAS DE LA MOLINA",
    "latitude": -12.080394,
    "longitude": -76.917763,
    "contentUrl": "http://arquitecturacontemporanealima.blogspot.com/2012/01/134.html"
  },
  {
    "name": "4938 CASA DE OBREROS N° 9",
    "latitude": -12.051683,
    "longitude": -77.024712,
    "contentUrl": "http://arquitecturacontemporanealima.blogspot.com/2012/01/135.html"
  },
  {
    "name": "4939 PLANTA DE MONTAJE CHRYSLER",
    "latitude": -12.006644,
    "longitude": -77.062248,
    "contentUrl": "http://arquitecturacontemporanealima.blogspot.com/2012/01/136.html"
  },
  {
    "name": "4940 EDIFICIO “RONALD”",
    "latitude": -12.060064,
    "longitude": -77.147241,
    "contentUrl": "http://arquitecturacontemporanealima.blogspot.com/2012/01/137.html"
  },
  {
    "name": "4942 GRAN HOTEL BOLIVAR",
    "latitude": -12.051104,
    "longitude": -77.03511,
    "contentUrl": "http://arquitecturacontemporanealima.blogspot.com/2012/01/138.html"
  },
  {
    "name": "4943 EDIFICIO ANTIGUO BANCO CENTRAL DE RESERVA",
    "latitude": -12.048085,
    "longitude": -77.030075,
    "contentUrl": "http://arquitecturacontemporanealima.blogspot.com/2012/01/139.html"
  },
  {
    "name": "4944 RESIDENCIAL SCHAER",
    "latitude": -12.093088,
    "longitude": -77.026573,
    "contentUrl": "http://arquitecturacontemporanealima.blogspot.com/2012/01/140.html"
  },
  {
    "name": "4946 PLANTA DE ENSAMBLAJE GENERAL MOTORS",
    "latitude": -12.053674,
    "longitude": -76.971527,
    "contentUrl": "http://arquitecturacontemporanealima.blogspot.com/2012/01/141.html"
  },
  {
    "name": "4947 MINISTERIO DE TRANSPORTES Y COMUNICACIONES",
    "latitude": -12.063616,
    "longitude": -77.037041,
    "contentUrl": "http://arquitecturacontemporanealima.blogspot.com/2012/01/142.html"
  },
  {
    "name": "4948 BANCO ITALIANO",
    "latitude": -12.048266,
    "longitude": -77.029778,
    "contentUrl": "http://arquitecturacontemporanealima.blogspot.com/2012/01/143.html"
  },
  {
    "name": "4949 CASA HOCHKOPPLER",
    "latitude": -12.103608,
    "longitude": -77.042533,
    "contentUrl": "http://arquitecturacontemporanealima.blogspot.com/2012/01/144.html"
  },
  {
    "name": "4950 UNIDAD VECINAL N°5 (MATUTE)",
    "latitude": -12.073441,
    "longitude": -77.023689,
    "contentUrl": "http://arquitecturacontemporanealima.blogspot.com/2012/01/145.html"
  },
  {
    "name": "4951 EDIFICIO GILDEMEISTER Y CO.",
    "latitude": -12.047597,
    "longitude": -77.027924,
    "contentUrl": "http://arquitecturacontemporanealima.blogspot.com/2012/01/146.html"
  },
  {
    "name": "4952 CONJUNTO HABITACIONAL PALOMINO",
    "latitude": -12.05965,
    "longitude": -77.07,
    "contentUrl": "http://arquitecturacontemporanealima.blogspot.com/2012/01/147.html"
  },
  {
    "name": "4953 CASA CHAVEZ",
    "latitude": -12.117368,
    "longitude": -76.972176,
    "contentUrl": "http://arquitecturacontemporanealima.blogspot.com/2012/01/148.html"
  },
  {
    "name": "4954 RESTAURANT “LA CABAÑA”",
    "latitude": -12.06178,
    "longitude": -77.035759,
    "contentUrl": "http://arquitecturacontemporanealima.blogspot.com/2012/01/149.html"
  },
  {
    "name": "4955 EDIFICIO COMPAÑÍA PERUANA DE TELEFONOS",
    "latitude": -12.048255,
    "longitude": -77.032043,
    "contentUrl": "http://arquitecturacontemporanealima.blogspot.com/2012/01/150.html"
  },
  {
    "name": "4956 MERCADO MODELO 28 DE JULIO",
    "latitude": -12.064389,
    "longitude": -77.041847,
    "contentUrl": "http://arquitecturacontemporanealima.blogspot.com/2012/01/151.html"
  },
  {
    "name": "4957 BAÑOS MUNICIPALES DE MIRAFLORES",
    "latitude": -12.128348,
    "longitude": -77.036575,
    "contentUrl": "http://arquitecturacontemporanealima.blogspot.com/2012/01/152.html"
  },
  {
    "name": "4958 MERCADO DE FLORES Y FRUTAS",
    "latitude": -12.063246,
    "longitude": -77.142418,
    "contentUrl": "http://arquitecturacontemporanealima.blogspot.com/2012/01/153.html"
  },
  {
    "name": "4959 CASINO DE ANCON",
    "latitude": -11.771431,
    "longitude": -77.174316,
    "contentUrl": "http://arquitecturacontemporanealima.blogspot.com/2012/01/154.html"
  },
  {
    "name": "4960 EDIFICIO DEL CLUB REGATAS “UNION”",
    "latitude": -12.067117,
    "longitude": -77.158569,
    "contentUrl": "http://arquitecturacontemporanealima.blogspot.com/2012/01/155.html"
  },
  {
    "name": "4962 EDIFICIO PERUINVEST – MIRAFLORES",
    "latitude": -12.124394,
    "longitude": -77.031433,
    "contentUrl": "http://arquitecturacontemporanealima.blogspot.com/2012/01/156.html"
  },
  {
    "name": "4963 AGRUPAMIENTO ANGAMOS",
    "latitude": -12.071322,
    "longitude": -77.045456,
    "contentUrl": "http://arquitecturacontemporanealima.blogspot.com/2012/01/157.html"
  },
  {
    "name": "4964 EDIFICIO COMPAÑÍA DE SEGUROS RIMAC",
    "latitude": -12.055159,
    "longitude": -77.036156,
    "contentUrl": "http://arquitecturacontemporanealima.blogspot.com/2012/01/158.html"
  },
  {
    "name": "4965 PLAZA SAN MARTIN",
    "latitude": -12.051613,
    "longitude": -77.034607,
    "contentUrl": "http://arquitecturacontemporanealima.blogspot.com/2012/01/159.html"
  },
  {
    "name": "4966 PLAZA DE ARMAS DE LIMA",
    "latitude": -12.045952,
    "longitude": -77.03054,
    "contentUrl": "http://arquitecturacontemporanealima.blogspot.com/2012/01/160.html"
  },
  {
    "name": "4969 EDIFICIO PETROPERU",
    "latitude": -12.097615,
    "longitude": -77.024925,
    "contentUrl": "http://arquitecturacontemporanealima.blogspot.com/2012/01/161.html"
  },
  {
    "name": "4970 IGLESIA NUESTRA SEÑORA DE LOBATON",
    "latitude": -12.084701,
    "longitude": -77.044327,
    "contentUrl": "http://arquitecturacontemporanealima.blogspot.com/2012/01/162.html"
  },
  {
    "name": "4974 EDIFICIO AJAX",
    "latitude": -12.107547,
    "longitude": -77.041275,
    "contentUrl": "http://arquitecturacontemporanealima.blogspot.com/2012/01/163.html"
  },
  {
    "name": "4975 EDIFICIO DE DEPARTAMENTOS CALLE JOSE GRANDA",
    "latitude": -12.097077,
    "longitude": -77.050591,
    "contentUrl": "http://arquitecturacontemporanealima.blogspot.com/2012/01/164.html"
  },
  {
    "name": "4976 DEPARTAMENTO CALLE ROMA",
    "latitude": -12.09146,
    "longitude": -77.051521,
    "contentUrl": "http://arquitecturacontemporanealima.blogspot.com/2012/01/165.html"
  },
  {
    "name": "4977 FABRICA ARROW",
    "latitude": -12.071343,
    "longitude": -77.061798,
    "contentUrl": "http://arquitecturacontemporanealima.blogspot.com/2012/01/166.html"
  },
  {
    "name": "4978 LABORATORIOS HOFFMAN – LA ROCHE",
    "latitude": -12.08773,
    "longitude": -77.007011,
    "contentUrl": "http://arquitecturacontemporanealima.blogspot.com/2012/01/167.html"
  },
  {
    "name": "4982 AUDITORIO DEL COLEGIO DE ABOGADOS DE LIMA",
    "latitude": -12.105394,
    "longitude": -77.032707,
    "contentUrl": "http://arquitecturacontemporanealima.blogspot.com/2012/01/168.html"
  },
  {
    "name": "4983 CASA MAZURE",
    "latitude": -12.098961,
    "longitude": -77.05806,
    "contentUrl": "http://arquitecturacontemporanealima.blogspot.com/2012/01/169.html"
  },
  {
    "name": "4984 BANCO CONTINENTAL MIRAFLORES",
    "latitude": -12.12356,
    "longitude": -77.029076,
    "contentUrl": "http://arquitecturacontemporanealima.blogspot.com/2012/01/170.html"
  },
  {
    "name": "4985 MINISTERIO DE PESQUERIA",
    "latitude": -12.088496,
    "longitude": -77.003273,
    "contentUrl": "http://arquitecturacontemporanealima.blogspot.com/2012/01/171.html"
  },
  {
    "name": "4987 RESIDENCIA DÓNOFRIO II",
    "latitude": -12.09542,
    "longitude": -77.053688,
    "contentUrl": "http://arquitecturacontemporanealima.blogspot.com/2012/01/172.html"
  },
  {
    "name": "4988 COLEGIO Y CONVENTO SANTA GORETTI",
    "latitude": -12.065683,
    "longitude": -77.015182,
    "contentUrl": "http://arquitecturacontemporanealima.blogspot.com/2012/01/173.html"
  },
  {
    "name": "4989 CASA DE OBREROS N°17",
    "latitude": -12.052751,
    "longitude": -77.023842,
    "contentUrl": "http://arquitecturacontemporanealima.blogspot.com/2012/01/174.html"
  },
  {
    "name": "4990 IGLESIA SAN FELIPE APOSTOL",
    "latitude": -12.092108,
    "longitude": -77.048553,
    "contentUrl": "http://arquitecturacontemporanealima.blogspot.com/2012/01/175.html"
  },
  {
    "name": "4991 EDIFICIO PUERTA DE TIERRA",
    "latitude": -12.164859,
    "longitude": -77.024796,
    "contentUrl": "http://arquitecturacontemporanealima.blogspot.com/2012/01/176.html"
  },
  {
    "name": "4992 CASA DE LA PIEDRA",
    "latitude": -12.081803,
    "longitude": -76.935211,
    "contentUrl": "http://arquitecturacontemporanealima.blogspot.com/2012/01/177.html"
  },
  {
    "name": "4993 CASA NEIRA",
    "latitude": -12.123166,
    "longitude": -77.02713,
    "contentUrl": "http://arquitecturacontemporanealima.blogspot.com/2012/01/178.html"
  },
  {
    "name": "4994 CINE ROMA",
    "latitude": -12.073483,
    "longitude": -77.0355,
    "contentUrl": "http://arquitecturacontemporanealima.blogspot.com/2012/01/179.html"
  },
  {
    "name": "4995 IGLESIA SAN ANTONIO DE PADUA",
    "latitude": -12.082931,
    "longitude": -77.05249,
    "contentUrl": "http://arquitecturacontemporanealima.blogspot.com/2012/01/180.html"
  },
  {
    "name": "4996 CONJUNTO HABITACIONAL LIMATAMBO",
    "latitude": -12.109026,
    "longitude": -77.003281,
    "contentUrl": "http://arquitecturacontemporanealima.blogspot.com/2012/01/181.html"
  },
  {
    "name": "4997 COMEDOR INFANTIL DE LA BENEFICENCIA",
    "latitude": -12.052856,
    "longitude": -77.031444,
    "contentUrl": "http://arquitecturacontemporanealima.blogspot.com/2012/01/182.html"
  },
  {
    "name": "4998 EDIFICIO LAS NACIONES",
    "latitude": -12.097906,
    "longitude": -77.027985,
    "contentUrl": "http://arquitecturacontemporanealima.blogspot.com/2012/01/183.html"
  }
]